Name,Country,Latitude,Longitude
Duisburg,Germany,51.4344,6.7623
Rotterdam,Netherlands,51.9244,4.4777
Antwerp,Belgium,51.2194,4.4025
Hamburg,Germany,53.5511,9.9937
Lyon,France,45.764,4.8357
Frankfurt,Germany,50.1109,8.6821
Gdańsk,Poland,54.352,18.6466
Le Havre,France,49.4944,0.1079
Marseille,France,43.2965,5.3698
Vienna,Austria,48.2082,16.3738
Milan,Italy,45.4642,9.19
Katowice,Poland,50.2649,19.0238
